     3.03           OBSERVATION DATA    M                   RINEX VERSION / TYPE
Where v0.12.1       NMA                 20180921 100314 UTC PGM / RUN BY / DATE
                                                            COMMENT
                                                            COMMENT
                                                            COMMENT
trds                                                        MARKER NAME
Trondheim                                                   MARKER NUMBER
SATREF              Norwegian Mapping Authority             OBSERVER / AGENCY
                    TRIMBLE NETR9                           REC # / TYPE / VERS
                    TRM55971.00     NONE                    ANT # / TYPE
  2820173.5383   513486.3516  5678940.7064                  APPROX POSITION XYZ
        0.0000        0.0000        0.0000                  ANTENNA: DELTA H/E/N
C   10 C6X L6X S6X C1X L1X D1X S1X C7X L7X S7X              SYS / # / OBS TYPES
E   13 C1X L1X D1X S1X C5X L5X S5X C8X L8X S8X C7X L7X S7X  SYS / # / OBS TYPES
G   12 C1C L1C D1C S1C C2W C2X L2W L2X D2W D2X S2W S2X      SYS / # / OBS TYPES
R   13 C1C C1P L1C L1P D1C S1C S1P C2C C2P L2C L2P S2C S2P  SYS / # / OBS TYPES
DBHZ                                                        SIGNAL STRENGTH UNIT
   300.000                                                  INTERVAL
  2018     2     1     0     0    0.0000000     GPS         TIME OF FIRST OBS
  2018     2     1    23    59   59.0000000     GPS         TIME OF LAST OBS
     0                                                      RCV CLOCK OFFS APPL
G APPL_DCB          xyz.uvw.abc//pub/dcb_gps.dat            SYS / DCBS APPLIED
G L1C  0.00000  12 G01 G02 G03 G04 G05 G06 G07 G08 G09 G10  SYS / PHASE SHIFT
                   G11 G12                                  SYS / PHASE SHIFT
G L1W  0.00000                                              SYS / PHASE SHIFT
 22 R01  1 R02 -4 R03  5 R04  6 R05  1 R06 -4 R07  5 R08  6 GLONASS SLOT / FRQ #
    R09 -6 R10 -7 R11  0 R13 -2 R14 -7 R15  0 R17  4 R18 -3 GLONASS SLOT / FRQ #
    R19  3 R20  2 R21  4 R22 -3 R23  3 R24  2               GLONASS SLOT / FRQ #
 C1C  -10.000 C1P  -10.123 C2C  -10.432 C2P  -10.634        GLONASS COD/PHS/BIS
    18                                                      LEAP SECONDS
    78                                                      # OF SATELLITES
                                                            END OF HEADER
> 2018  2  1  0  0  0.0000000  0 30                     
C05  40600783.887   171795225.792 6        36.900    40600795.031   211419072.478 5       -42.613          35.800    40600789.336   163482539.276 6        36.600  
C06  39162317.934   165708618.878 7        42.600    39162332.563   203928531.154 7       971.250          43.300    39162323.867   157690435.321 6        41.400  
C09  39600274.430   167561768.419 6        40.300    39600288.016   206209100.376 6      1725.762          41.100    39600282.590   159453922.049 6        41.000  
C13  40825353.434   172745488.484 5        34.100    40825362.375   212588396.617 5     -1302.109          35.000    40825361.859   164386797.162 5        33.300  
C14  24652313.605   104312043.736 7        44.900    24652328.586   128371154.940 7     -1666.715          45.300    24652320.148    99264676.296 7        43.200  
E07  26117653.953   137249204.985 7       174.750          46.600    26117655.770   102491286.291 7        46.000    26117656.203   103828142.402 8        50.000    26117654.656   105164975.310 7        45.800  
E08  26016567.422   136717981.275 5     -2266.594          32.900    26016568.160   102094604.775 6        39.200    26016568.109   103426273.656 7        42.800    26016566.766   104757936.323 6        38.600  
E12  23183745.570   121831424.561 7      1736.047          47.800    23183743.301    90978012.192 8        48.400    23183743.977    92164686.810 8        52.100    23183742.691    93351352.221 8        48.200  
E24  22755242.922   119579624.738 8     -1375.344          50.800    22755254.664    89296524.702 8        49.700    22755255.176    90461258.945 8        53.000    22755254.125    91625994.979 8        49.000  
E26  25417655.508   133570693.211 7     -2896.246          42.300    25417656.328    99744373.784 6        41.200    25417657.293   101045384.154 7        44.700    25417656.695   102346392.323 6        40.900  
G07  23494924.453   123466751.004 7       658.074          44.600    23494926.660    23494926.445    96207812.405 4  96207776.415 6       512.785         512.785          28.200          40.300  
G08  23690890.547   124496458.011 7      3426.098          45.800    23690892.871    23690893.223    97010247.099 4  97010242.116 6      2669.686        2669.686          27.600          41.600  
G10  23880867.234   125494696.623 5      3671.629          30.100                                                                                                                                  
G13  24137928.531   126845590.477 7      1539.680          42.000    24137932.289                    98840803.062 3                      1199.750                          22.000                  
G15  24236245.742   127362289.440 7      2293.063          45.200    24236247.500    24236247.152    99243378.716 3  99243367.698 6      1786.802        1786.802          23.200          36.500  
G16  21119353.719   110982860.196 8     -1784.992          49.300    21119355.766                    86480229.617 6                     -1390.903                          38.000                  
G20  22172594.367   116517825.213 7     -1607.590          45.400    22172597.754                    90793089.087 5                     -1252.667                          30.400                  
G21  21756232.172   114329596.636 8     -1440.242          49.600    21756234.426                    89088169.949 6                     -1122.267                          38.600                  
G26  22837288.734   120010882.875 7     -3316.531          45.900    22837295.043    22837294.723    93514897.375 5  93514948.363 7     -2584.310       -2584.310          34.000          44.900  
G27  20759442.742   109091615.475 8      1755.809          52.400    20759446.922    20759446.938    85006476.404 7  85006471.409 8      1368.163        1368.163          43.200          51.500  
G30  24355256.750   127987744.950 6      2000.191          39.200    24355260.113    24355260.359    99730708.433 2  99730719.453 5      1558.591        1558.591          14.800          35.900  
R04  22291299.797    22291298.371   119368918.740 7 119368881.747 7     -2861.789          45.800          43.800    22291300.227    22291301.066    92842487.198 7  92842505.189 6        43.800          41.700  
R05  20937846.906    20937845.746   111924782.914 7 111924773.926 7       917.070          44.700          43.500    20937849.117    20937848.477    87052609.409 6  87052654.474 6        37.500          36.000  
R06  22893676.672    22893675.918   122165039.205 6 122165021.230 6      4290.629          39.000          37.400    22893679.012    22893678.297    95017246.698 5  95017229.700 5        34.500          31.900  
R11  22275651.289    22275652.125   119034328.066 7 119034300.066 7     -4137.434          46.800          45.900    22275654.523    22275654.594    92582234.214 7  92582255.217 6        42.300          41.100  
R12  20538209.898    20538208.563   109711433.665 8 109711419.666 8     -1136.492          49.200          48.300                                                                                                  
R13  22451797.836    22451797.008   119891392.757 5 119891345.714 5      3321.035          33.500          33.400    22451801.504    22451801.582    93248823.355 5  93248819.305 5        34.800          33.800  
R20  22055136.320    22055135.434   117938686.173 7 117938721.186 6     -3682.496          42.300          41.300    22055140.598    22055139.590    91730136.031 7  91730133.013 7        44.100          43.000  
R21  19171158.078    19171156.285   102588760.742 8 102588742.759 8      -371.094          50.300          48.900    19171158.777    19171159.430    79791251.815 8  79791245.803 8        50.400          48.100  
R22  21255724.133    21255722.813   113464531.800 8 113464494.808 8      3347.121          49.800          48.400    21255726.195    21255726.383    88250185.014 7  88250200.013 7        46.900          45.200  
> 2018  2  1  0  5  0.0000000  0 29                     
C05  40603274.961   171805765.921 6        36.800    40603285.531   211432043.642 6       -43.844          36.300    40603279.531   163492569.405 6        36.800  
C06  39107865.410   165478211.736 7        42.100    39107878.078   203644981.631 6       919.047          41.800    39107872.688   157471176.910 7        43.400  
C09  39501902.668   167145524.639 6        39.200    39501916.547   205696851.891 6      1689.051          41.800    39501910.043   159057819.090 6        40.100  
C13  40900379.117   173062945.568 5        33.700    40900387.414   212979073.469 6     -1302.566          36.800    40900387.133   164688893.546 5        35.300  
C14  24752622.766   104736482.904 7        44.400    24752637.406   128893489.044 7     -1814.688          45.100    24752630.574    99668578.065 7        43.900  
E07  26112041.891   137219717.437 7        21.816          46.600    26112043.078   102469266.387 7        45.000    26112044.680   103805835.274 8        48.900    26112043.477   105142380.956 7        44.800  
E08  26148754.859   137412586.277 5     -2363.078          30.900    26148750.613   102613300.505 6        39.700    26148749.203   103951735.123 6        41.000    26148745.273   105290163.530 5        34.600  
E12  23087152.602   121323827.779 7      1647.582          47.500    23087150.512    90598962.677 8        48.300    23087151.430    91780693.164 8        52.300    23087150.371    92962414.443 8        48.200  
E24  22837811.164   120013527.707 8     -1516.945          50.300    22837823.961    89620543.128 8        50.000    22837824.254    90789503.696 8        52.300    22837821.711    91958466.060 8        48.400  
E26  25583632.648   134442914.429 6     -2918.078          40.400    25583634.527   100395707.936 6        40.800    25583635.570   101705214.001 7        44.200    25583635.063   103014717.833 6        40.400  
G07  23462988.023   123298930.579 7       460.406          45.800    23462990.992    23462990.824    96077043.352 4  96077007.353 6       358.758         358.758          29.200          41.100  
G08  23496892.148   123476997.320 7      3369.355          43.300    23496896.934    23496897.379    96215862.179 4  96215857.177 7      2625.472        2625.472          27.600          43.400  
G13  24055342.117   126411593.573 7      1352.543          42.700    24055344.586                    98502623.823 3                      1053.930                          21.800                  
G15  24109604.133   126696788.237 7      2142.203          43.000    24109605.949    24109605.965    98724806.583 4  98724795.605 6      1669.249        1669.249          24.200          39.000  
G16  21226483.500   111545825.806 8     -1967.223          50.000    21226484.316                    86918903.974 6                     -1532.901                          38.700                  
G20  22269644.492   117027823.213 7     -1791.332          46.700    22269646.297                    91190490.114 5                     -1395.843                          30.800                  
G21  21841827.945   114779402.510 8     -1557.805          49.100    21841829.141                    89438668.016 6                     -1213.874                          38.700                  
G26  23029406.430   121020464.741 7     -3412.660          46.600    23029413.207    23029412.547    94301584.250 5  94301635.259 7     -2659.216       -2659.216          31.600          44.300  
G27  20663554.039   108587717.660 8      1602.758          53.400    20663557.984    20663557.684    84613828.777 7  84613823.790 8      1248.902        1248.902          43.500          50.500  
G30  24245794.242   127412516.994 5      1833.676          35.200    24245798.602    24245798.734    99282483.365 2  99282489.345 6      1428.838        1428.838          13.900          36.700  
R04  22457338.930    22457338.207   120258049.022 7 120258012.034 7     -3063.672          46.800          45.500    22457340.180    22457340.199    93534032.828 6  93534050.830 6        41.700          40.200  
R05  20894268.211    20894266.672   111691831.214 7 111691822.235 7       635.371          45.300          43.200    20894270.609    20894269.898    86871424.819 6  86871469.804 5        37.900          35.700  
R06  22655031.570    22655030.137   120891583.086 6 120891565.058 6      4196.598          38.700          38.000    22655031.117    22655031.809    94026781.186 5  94026764.205 5        33.100          31.800  
R11  22511113.125    22511112.504   120292557.929 7 120292529.934 7     -4248.355          44.300          42.400    22511116.078    22511117.203    93560856.906 7  93560877.909 7        43.900          42.300  
R12  20609801.594    20609800.422   110093865.147 8 110093851.155 8     -1412.176          49.200          48.200                                                                                                  
R13  22270471.281    22270467.918   118923097.104 6 118923050.095 5      3131.996          37.200          35.500    22270471.266    22270470.992    92495704.764 6  92495700.758 5        36.900          35.400  
R20  22263788.047    22263787.207   119054433.636 7 119054468.677 6     -3754.629          42.900          41.100    22263791.527    22263790.023    92597939.643 7  92597936.646 6        43.400          41.000  
R21  19197565.578    19197564.559   102730077.910 8 102730059.913 8      -570.766          50.000          48.200    19197566.957    19197567.684    79901165.187 8  79901159.185 8        49.800          48.100  
R22  21070719.750    21070717.961   112476964.320 8 112476927.322 8      3235.605          51.200          49.600    21070721.668    21070721.297    87482077.055 7  87482092.040 7        47.200          46.200  
> 2018  2  1  0 10  0.0000000  0 30                     
C05  40605837.426   171816606.475 6        37.000    40605846.180   211445384.552 5       -45.098          35.100    40605843.016   163502885.373 6        37.100  
C06  39056438.191   165260604.491 7        43.700    39056451.109   203377184.330 7       866.168          42.600    39056443.797   157264099.077 7        42.000  
C09  39405690.496   166738418.496 6        41.300    39405704.891   205195848.709 7      1650.793          42.700    39405697.602   158670411.690 6        40.300  
C13  40975431.813   173380529.967 5        32.100    40975442.969   213369906.966 5     -1302.914          34.300    40975443.156   164991110.917 5        33.400  
C14  24861300.199   105196335.406 7        43.900    24861312.938   129459404.317 7     -1957.207          43.600    24861307.805   100106179.629 7        43.700  
E07  26115160.328   137236102.038 7      -131.043          46.000    26115161.855   102481501.632 7        45.700    26115162.785   103818230.125 8        49.500    26115160.398   105154935.395 7        45.600  
E08  26286259.734   138135285.042 5     -2453.504          34.700    26286258.430   103152930.814 5        33.200    26286260.852   104498404.034 5        34.800    26286255.785   105843870.99614        26.800  
E11  27495207.836   144488292.075 6      3000.070          40.400    27495204.965   107897084.962 6        37.700    27495205.273   109304443.501 6        40.800    27495202.969   110711783.851 5        35.700  
E12  22995667.305   120843066.014 8      1557.227          48.500    22995664.398    90239952.319 8        48.700    22995665.512    91417000.048 8        51.800    22995664.316    92594038.578 8        48.700  
E24  22928363.195   120489377.942 8     -1654.906          50.300    22928375.000    89975886.026 8        49.300    22928375.293    91149481.484 8        53.000    22928374.180    92323078.734 8        49.100  
E26  25750786.734   135321312.607 6     -2937.363          40.200    25750788.797   101051654.534 6        40.900    25750788.723   102369716.380 7        44.500    25750787.719   103687776.025 6        40.200  
G07  23442383.906   123190644.074 8       261.289          48.000    23442384.527    23442384.609    95992664.235 4  95992628.226 6       203.602         203.602          28.800          40.700  
G08  23306298.297   122475422.234 7      3306.828          43.000    23306303.199    23306303.340    95435414.126 4  95435409.124 7      2576.749        2576.749          29.500          44.400  
G13  23983601.531   126034595.634 7      1159.777          42.300    23983604.117                    98208859.290 3                       903.723                          22.200                  
G15  23991820.195   126077830.725 7      1982.707          44.500    23991823.594    23991824.137    98242502.348 4  98242491.329 6      1544.967        1544.967          25.900          40.500  
G16  21343853.719   112162612.534 8     -2143.695          49.900    21343855.473                    87399516.794 6                     -1670.412                          38.100                  
G20  22377002.094   117591991.352 7     -1968.750          45.900    22377003.547                    91630101.648 5                     -1534.091                          30.200                  
G21  21934020.492   115263880.916 8     -1671.449          48.600    21934022.391                    89816183.683 6                     -1302.428                          38.500                  
G26  23226782.891   122057684.521 7     -3500.660          45.300    23226789.727    23226789.242    95109807.163 5  95109858.169 7     -2727.787       -2727.787          31.600          43.600  
G27  20576531.117   108130413.105 8      1445.199          51.800    20576535.824    20576535.852    84257487.600 7  84257482.589 8      1126.129        1126.129          43.400          51.300  
G30  24146024.156   126888236.951 6      1660.563          37.400    24146030.449    24146030.031    98873953.693 2  98873959.705 5      1293.945        1293.945          16.300          35.900  
R04  22634325.922    22634325.246   121205809.641 7 121205772.650 7     -3252.656          46.800          46.000    22634328.789    22634328.152    94271179.757 6  94271197.765 6        40.800          39.500  
R05  20866587.531    20866586.273   111543866.118 7 111543857.140 7       350.645          45.000          43.000    20866589.813    20866589.523    86756340.875 6  86756385.890 5        37.200          35.600  
R06  22422076.031    22422075.652   119648488.746 7 119648470.741 6      4088.219          42.400          41.200    22422077.129    22422078.898    93059930.301 6  93059913.292 5        37.300          35.000  
R11  22752406.500    22752406.047   121581955.615 7 121581927.618 7     -4345.242          45.300          44.100    22752410.484    22752410.250    94563721.252 7  94563742.258 6        43.900          41.800  
R12  20696701.258    20696700.273   110558072.223 8 110558058.225 7     -1681.414          48.200          47.200                                                                                                  
R13  22100120.031    22100118.758   118013445.745 6 118013398.742 6      2930.020          38.500          36.600    22100122.293    22100122.086    91788198.295 6  91788194.312 5        36.700          35.400  
R20  22476295.227    22476295.043   120190816.311 6 120190851.330 6     -3820.156          40.600          39.700    22476300.516    22476299.129    93481793.139 7  93481790.142 6        43.700          41.800  
R21  19235110.398    19235109.098   102930983.948 8 102930965.948 8      -768.387          50.800          49.100    19235111.590    19235112.387    80057425.439 8  80057419.430 8        50.300          48.900  
R22  20892163.328    20892161.703   111523818.890 8 111523781.877 8      3117.566          51.300          49.300    20892164.895    20892164.969    86740741.745 7  86740756.746 7        47.800          46.600  
> 2018  2  1  0 15  0.0000000  0 31                     
C05  40608469.516   171827744.601 6        36.800    40608479.641   211459091.694 5       -46.449          35.900    40608473.535   163513484.572 6        36.800  
C06  39008064.082   165055920.075 7        42.800    39008077.891   203125290.373 7       812.934          43.000    39008070.848   157069318.745 7        42.300  
C09  39311710.742   166340757.552 6        41.200    39311723.352   204706469.095 7      1611.457          42.200    39311717.891   158291992.403 6        41.700  
C13  41050516.609   173698224.657 5        31.400    41050526.242   213760876.310 5     -1303.484          35.000    41050523.465   165293433.407 5        31.000  
C14  24978023.742   105690230.177 7        44.500    24978038.383   130067213.475 7     -2093.949          44.400    24978031.867   100576176.240 7        45.000  
E07  26126996.266   137298301.308 7      -283.574          45.400    26126998.773   102527949.161 7        46.300    26126998.809   103865283.482 8        49.400    26126996.879   105202594.586 7        44.600  
E08  26428775.992   138884205.112 5     -2538.242          30.900    26428776.820   103712187.905 5        31.800    26428775.891   105064955.808 5        35.400    26428775.383   106417743.49415        31.600  
E11  27324386.852   143590628.065 6      2983.934          38.900    27324384.750   107226751.947 6        36.100    27324385.043   108625366.974 6        39.400    27324384.301   110023963.797 5        35.100  
E12  22909392.453   120389689.623 8      1464.961          48.900    22909390.531    89901392.048 8        49.800    22909390.797    91074023.781 8        52.900    22909389.500    92246646.300 8        49.100  
E24  23026689.852   121006088.091 8     -1789.195          49.800    23026700.887    90361740.792 8        48.500    23026702.074    91540369.153 8        51.800    23026700.469    92718999.297 8        48.600  
E26  25918967.242   136205106.175 6     -2954.227          40.900    25918969.039   101711629.984 6        40.900    25918969.445   103038300.235 7        44.000    25918968.742   104364968.281 6        40.500  
G07  23433169.281   123142227.402 7        61.465          47.100    23433171.074    23433170.230    95954937.090 4  95954901.100 6        47.895          47.895          28.600          39.900  
G08  23119445.359   121493507.594 7      3238.363          42.200    23119450.672    23119451.176    94670285.856 4  94670280.873 7      2523.400        2523.400          28.900          44.900  
G10  23268918.695   122279216.298 6      3461.238          41.600    23268920.848    23268920.336    95282350.697 3  95282322.702 6      2697.069        2697.069          21.300          40.600  
G13  23923018.750   125716224.734 7       961.922          43.500    23923020.691                    97960778.135 3                       749.550                          22.500                  
G15  23883372.875   125507927.747 7      1815.219          46.700    23883373.578    23883373.102    97798422.337 4  97798411.319 6      1414.456        1414.456          27.500          37.800  
G16  21471124.242   112831419.983 8     -2314.016          49.800    21471125.938                    87920665.203 6                     -1803.129                          37.000                  
G20  22494294.453   118208371.839 7     -2139.441          45.400    22494297.020                    92110398.121 4                     -1667.097                          29.700                  
G21  22032579.867   115781813.122 8     -1780.836          48.400    22032581.297                    90219767.235 6                     -1387.664                          38.200                  
G26  23428944.273   123120053.547 7     -3580.426          45.200    23428951.051    23428951.461    95937626.860 5  95937677.847 7     -2789.942       -2789.942          30.400          42.700  
G27  20498626.852   107721018.718 8      1283.383          52.300    20498630.797    20498630.906    83938478.915 7  83938473.912 8      1000.039        1000.039          43.800          50.900  
G30  24056305.758   126416756.020 6      1481.566          37.200    24056309.531    24056308.254    98506566.499 2  98506572.479 5      1154.467        1154.467          17.400          35.500  
R04  22821539.289    22821537.371   122208318.407 7 122208281.408 7     -3428.605          44.700          43.400    22821539.199    22821539.598    95050908.693 7  95050926.703 6        42.000          40.100  
R05  20854936.773    20854935.352   111481580.140 7 111481571.160 7        64.340          45.100          43.000    20854937.906    20854937.945    86707896.226 6  86707941.240 5        37.100          35.200  
R06  22195613.188    22195612.012   118440039.168 6 118440021.152 6      3965.688          41.800          40.500    22195613.531    22195614.367    92120025.330 6  92120008.350 5        36.700          34.400  
R11  22998744.516    22998744.789   122898311.380 7 122898283.377 7     -4428.258          45.200          43.000    22998748.008    22998749.016    95587553.026 6  95587574.036 6        41.700          40.100  
R12  20798512.828    20798512.313   111101931.107 8 111101917.102 7     -1943.023          48.700          47.500                                                                                                  
R13  21941475.117    21941472.762   117166286.771 6 117166239.752 6      2715.469          41.300          39.800    21941476.133    21941476.656    91129297.049 6  91129293.030 6        37.600          37.200  
R20  22692293.727    22692292.230   121345846.335 7 121345881.356 6     -3879.039          42.100          40.200    22692295.047    22692295.188    94380149.891 6  94380146.896 6        41.100          40.300  
R21  19283668.563    19283667.191   103190826.920 8 103190808.925 8      -963.574          50.500          49.600    19283668.980    19283669.633    80259525.467 8  80259519.458 7        49.800          47.800  
R22  20720425.969    20720424.555   110607078.148 8 110607041.150 8      2992.926          50.800          48.900    20720428.945    20720428.945    86027721.204 8  86027736.197 7        48.200          46.400  
